{
  "_id": "62b43cbab75a24bc5b620a26",
  "id": "urn:ngsi-ld:Shipment:VPF:1234760470",
  "type": "Shipment",
  "agent": {
    "ID": "A61361796@46023@office",
    "role": "agent",
    "organization": {
      "code": "A61361796",
      "name": "Cosco Shipping Lines Spain S.A."
    },
    "office": {
      "code": "46023",
      "name": "Valencia"
    },
    "address": {
      "street": "Menorca, 19, planta 11 - Edificio AQUA",
      "city": "Valencia",
      "postalCode": "46023",
      "province": "Valencia/València",
      "country": {
        "code": "ES",
        "name": "ESPAÑA"
      }
    },
    "codes": [
      "T073"
    ]
  },
  "version": "0.0",
  "reportedByID": "Z11111111@46024@office",
  "reportedByRole": "requestor",
  "assetType": "shipment",
  "userId": "62531bfbc00922fd58ea3bcc",
  "ID": "R202206082@W44444444@46024@shipment",
  "status": "finished",
  "lastTrackableEvent": {
    "ID": "2022-06-11T06:08:00.000Z@X33333333@28922@event",
    "name": "discharge",
    "eventType": "discharged",
    "location": {
      "location": "X33333333@28922@office",
      "address": {
        "city": "Madrid",
        "postalCode": "28922"
      },
      "position": {
        "type": "Point",
        "coordinates": [
          40.35,
          -3.959
        ]
      },
      "locationName": "Alcorcon"
    },
    "performedTime": "2022-06-11T07:08:00+01:00"
  },
  "shipmentID": "2022060802",
  "requestorReference": "R202206082",
  "transportMode": "road",
  "transportUnitType": "pallet",
  "orderDate": "2022-06-09T15:30:00+01:00",
  "itemCount": 2,
  "totalDeclaredWeight": 15000,
  "requestor": {
    "ID": "Z11111111@46024@office",
    "organization": {
      "code": "Z11111111",
      "name": "CARGADOR"
    },
    "office": {
      "code": "46024",
      "name": "VALÈNCIA"
    },
    "address": {
      "city": "VALÈNCIA",
      "postalCode": "46024",
      "province": "VALENCIA/VALÈNCIA"
    }
  },
  "dispatchParty": {
    "ID": "Y22222222@46024@office",
    "organization": {
      "code": "Y22222222",
      "name": "EXPEDIDOR"
    },
    "office": {
      "code": "46024",
      "name": "VALÈNCIA"
    },
    "address": {
      "city": "VALÈNCIA",
      "postalCode": "46024",
      "province": "VALENCIA/VALÈNCIA"
    }
  },
  "consignee": {
    "ID": "X33333333@28922@office",
    "organization": {
      "code": "X33333333",
      "name": "DESTINATARIO"
    },
    "office": {
      "code": "28922",
      "name": "ALCORCÓN"
    },
    "address": {
      "city": "ALCORCÓN",
      "postalCode": "28922",
      "province": "MADRID"
    }
  },
  "carrier": {
    "ID": "W44444444@46024@office",
    "organization": {
      "code": "W44444444",
      "name": "TRANSPORTISTA"
    },
    "office": {
      "code": "46024",
      "name": "VALÈNCIA"
    },
    "address": {
      "city": "VALÈNCIA",
      "postalCode": "46024",
      "province": "VALENCIA/VALÈNCIA"
    }
  },
  "transport": {
    "ID": "002@W44444444@46024@transport",
    "transportID": "002",
    "identification": {
      "code": "BCD5464"
    },
    "carrier": {
      "ID": "W44444444@46024@office",
      "role": "carrier",
      "organization": {
        "code": "W44444444",
        "name": "TRANSPORTISTA"
      },
      "office": {
        "code": "46024",
        "name": "VALÈNCIA"
      },
      "address": {
        "city": "VALÈNCIA",
        "postalCode": "46024",
        "province": "VALENCIA/VALÈNCIA"
      }
    }
  },
  "origin": {
    "type": "stopover",
    "location": "Y22222222@46024@office",
    "locationName": "Valencia",
    "rtd": "2022-06-11T00:00:00+01:00",
    "etd": "2022-06-11T08:30:00+01:00",
    "atd": "2022-06-11T07:08:00+01:00",
    "address": {
      "city": "Valencia",
      "postalCode": "46024"
    },
    "position": {
      "type": "Point",
      "coordinates": [
        39.43,
        -0.33
      ]
    }
  },
  "destination": {
    "type": "stopover",
    "location": "X33333333@28922@office",
    "locationName": "Alcorcon",
    "rta": "2022-06-11T20:00:00+01:00",
    "eta": "2022-06-11T19:00:00+01:00",
    "ata": "2022-06-11T07:08:00+01:00",
    "address": {
      "city": "Madrid",
      "postalCode": "28922"
    },
    "position": {
      "type": "Point",
      "coordinates": [
        40.35,
        -3.959
      ]
    }
  },
  "goodsItems": [
    {
      "goodsDescription": {
        "name": "AZULEJOS"
      }
    }
  ]
}